[{"id":"AK1","name":"Afognak","alt_name":"Agw\u2019aneq","region":"Alaska","country":"US","latitude":58.0078,"longitude":-152.768},{"id":"AK2","name":"Akhiok","alt_name":"Kasukuak","region":"Alaska","country":"US","latitude":56.9455,"longitude":-154.17},{"id":"AK3","name":"Akiachak","alt_name":"Akiacuar","region":"Alaska","country":"US","latitude":60.9094,"longitude":-161.431},{"id":"AK4","name":"Akiak","alt_name":"Akiaq","region":"Alaska","country":"US","latitude":60.9122,"longitude":-161.214},{"id":"AK5","name":"Akutan","alt_name":"Achan-ingiiga","region":"Alaska","country":"US","latitude":54.1385,"longitude":-165.778},{"id":"AK6","name":"Alakanuk","alt_name":"Alarneq","region":"Alaska","country":"US","latitude":62.6889,"longitude":-164.615},{"id":"AK7","name":"Alatna","alt_name":"Alaasuq","region":"Alaska","country":"US","latitude":66.5542,"longitude":-152.7019},{"id":"AK8","name":"Aleknagik","alt_name":"Alaqnaqiq","region":"Alaska","country":"US","latitude":59.273,"longitude":-158.618},{"id":"AK9","name":"Aleut Village","alt_name":null,"region":"Alaska","country":"US","latitude":58.0171,"longitude":-152.761},{"id":"AK10","name":"Alexander Creek","alt_name":null,"region":"Alaska","country":"US","latitude":61.4171,"longitude":-150.593},{"id":"AK11","name":"Allakaket","alt_name":"Aalaa Kkaakk\u2019et","region":"Alaska","country":"US","latitude":66.5656,"longitude":-152.646},{"id":"AK12","name":"Ambler","alt_name":"Ivisaappaat","region":"Alaska","country":"US","latitude":67.0861,"longitude":-157.851},{"id":"AK13","name":"Anaktuvuk Pass","alt_name":"Anaqtuuvak \/ Naqsraq","region":"Alaska","country":"US","latitude":68.1433,"longitude":-151.736},{"id":"AK14","name":"Anchor Point","alt_name":null,"region":"Alaska","country":"US","latitude":59.7766,"longitude":-151.831},{"id":"AK15","name":"Anchorage","alt_name":"Dgheyaytnu","region":"Alaska","country":"US","latitude":61.1817,"longitude":-149.993},{"id":"AK16","name":"Anderson","alt_name":null,"region":"Alaska","country":"US","latitude":64.3441,"longitude":-149.187},{"id":"AK17","name":"Andreafsky","alt_name":null,"region":"Alaska","country":"US","latitude":62.0501,"longitude":-163.167},{"id":"AK18","name":"Angoon","alt_name":"Aang\u00f3on","region":"Alaska","country":"US","latitude":57.5033,"longitude":-134.584},{"id":"AK19","name":"Aniak","alt_name":"Anyaraq","region":"Alaska","country":"US","latitude":61.5783,"longitude":-159.522},{"id":"AK20","name":"Annette","alt_name":null,"region":"Alaska","country":"US","latitude":55.063,"longitude":-131.541},{"id":"AK21","name":"Anvik","alt_name":"Gitr\u2019ingith Chagg","region":"Alaska","country":"US","latitude":62.6561,"longitude":-160.207},{"id":"AK22","name":"Arctic Village","alt_name":"Vashr\u0105\u012f\u012f K'\u01eb\u01eb","region":"Alaska","country":"US","latitude":68.1269,"longitude":-145.538},{"id":"AK23","name":"Atka","alt_name":"Atx\u0302ax\u0302","region":"Alaska","country":"US","latitude":52.191,"longitude":-174.189},{"id":"AK24","name":"Atmautluak","alt_name":"Atmaulluaq","region":"Alaska","country":"US","latitude":60.8641,"longitude":-162.2723},{"id":"AK25","name":"Atqasuk","alt_name":null,"region":"Alaska","country":"US","latitude":70.4694,"longitude":-157.396},{"id":"AK26","name":"Attu","alt_name":null,"region":"Alaska","country":"US","latitude":52.9365,"longitude":173.24},{"id":"AK27","name":"Auke Bay","alt_name":null,"region":"Alaska","country":"US","latitude":58.383,"longitude":-134.657},{"id":"AK28","name":"Ayakulik","alt_name":null,"region":"Alaska","country":"US","latitude":57.2113,"longitude":-154.546},{"id":"AK29","name":"Baranof Warm Springs","alt_name":null,"region":"Alaska","country":"US","latitude":57.0895,"longitude":-134.8337},{"id":"AK30","name":"Bartlett Cove","alt_name":null,"region":"Alaska","country":"US","latitude":58.45,"longitude":-135.916},{"id":"AK31","name":"Beaver","alt_name":"Ts'aahudaaneekk'onh Denh","region":"Alaska","country":"US","latitude":66.3594,"longitude":-147.396},{"id":"AK444","name":"Beecher Pass State Marine Park","alt_name":null,"region":"Alaska","country":"US","latitude":56.6003,"longitude":-133.0267},{"id":"AK32","name":"Belkofski","alt_name":"Taxtamax\u0302","region":"Alaska","country":"US","latitude":55.0905,"longitude":-162.034},{"id":"AK33","name":"Bell Island Hot Springs","alt_name":null,"region":"Alaska","country":"US","latitude":55.933,"longitude":-131.566},{"id":"AK34","name":"Belmezok","alt_name":null,"region":"Alaska","country":"US","latitude":65.6172,"longitude":-168.101},{"id":"AK35","name":"Bessie No. 5 Dredge","alt_name":null,"region":"Alaska","country":"US","latitude":64.5502,"longitude":-165.151},{"id":"AK36","name":"Bethel","alt_name":"Mamterilleq","region":"Alaska","country":"US","latitude":60.7922,"longitude":-161.756},{"id":"AK37","name":"Bettles","alt_name":"Kk\u2019odlel T\u2019odegheelenh Denh","region":"Alaska","country":"US","latitude":66.9185,"longitude":-151.5162},{"id":"AK445","name":"Bettles Bay State Marine Park","alt_name":null,"region":"Alaska","country":"US","latitude":60.9597,"longitude":-148.3184},{"id":"AK38","name":"Big Delta","alt_name":null,"region":"Alaska","country":"US","latitude":64.1525,"longitude":-145.842},{"id":"AK39","name":"Big Lake","alt_name":null,"region":"Alaska","country":"US","latitude":61.5378,"longitude":-149.824},{"id":"AK40","name":"Bill Moores","alt_name":null,"region":"Alaska","country":"US","latitude":62.9504,"longitude":-163.7777},{"id":"AK41","name":"Biorka","alt_name":null,"region":"Alaska","country":"US","latitude":53.831,"longitude":-166.208},{"id":"AK42","name":"Birch Creek","alt_name":"\u0141iteet'aii","region":"Alaska","country":"US","latitude":66.2687,"longitude":-145.824},{"id":"AK43","name":"Birchwood","alt_name":null,"region":"Alaska","country":"US","latitude":61.4081,"longitude":-149.481},{"id":"AK44","name":"Bird Point","alt_name":null,"region":"Alaska","country":"US","latitude":60.9311,"longitude":-149.358},{"id":"AK45","name":"Bodenburg Butte","alt_name":null,"region":"Alaska","country":"US","latitude":61.5495,"longitude":-149.047},{"id":"AK46","name":"Boswell Bay","alt_name":null,"region":"Alaska","country":"US","latitude":60.4001,"longitude":-146.133},{"id":"AK47","name":"Brevig Mission","alt_name":"Sitaisaq","region":"Alaska","country":"US","latitude":65.3347,"longitude":-166.489},{"id":"AK48","name":"Buckland","alt_name":"Ka\u014biq","region":"Alaska","country":"US","latitude":65.9797,"longitude":-161.123},{"id":"AK49","name":"Candle","alt_name":null,"region":"Alaska","country":"US","latitude":65.9133,"longitude":-161.924},{"id":"AK50","name":"Cantwell","alt_name":"Yidateni Na\u2019","region":"Alaska","country":"US","latitude":63.3917,"longitude":-148.951},{"id":"AK51","name":"Cape Lisburne","alt_name":null,"region":"Alaska","country":"US","latitude":68.8678,"longitude":-166.193},{"id":"AK52","name":"Cape Pole","alt_name":null,"region":"Alaska","country":"US","latitude":55.965,"longitude":-133.798},{"id":"AK53","name":"Cape Yakataga","alt_name":null,"region":"Alaska","country":"US","latitude":60.0652,"longitude":-142.428},{"id":"AK54","name":"Central","alt_name":null,"region":"Alaska","country":"US","latitude":65.5724,"longitude":-144.803},{"id":"AK55","name":"Chakaktolik","alt_name":null,"region":"Alaska","country":"US","latitude":61.7711,"longitude":-163.625},{"id":"AK56","name":"Chakwaktolik","alt_name":null,"region":"Alaska","country":"US","latitude":61.2291,"longitude":-163.754},{"id":"AK57","name":"Chalkyitsik","alt_name":"Ja\u0142giitsik","region":"Alaska","country":"US","latitude":66.6544,"longitude":-143.722},{"id":"AK58","name":"Chaniliut","alt_name":null,"region":"Alaska","country":"US","latitude":63.0332,"longitude":-163.417},{"id":"AK59","name":"Charlieskin Village","alt_name":null,"region":"Alaska","country":"US","latitude":62.9672,"longitude":-141.816},{"id":"AK60","name":"Chatham","alt_name":null,"region":"Alaska","country":"US","latitude":57.514,"longitude":-134.924},{"id":"AK61","name":"Chefornak","alt_name":"Cevv\u02bcarneq \/ Caputnguaq","region":"Alaska","country":"US","latitude":60.1607,"longitude":-164.271},{"id":"AK62","name":"Chena Hot Springs","alt_name":null,"region":"Alaska","country":"US","latitude":65.053,"longitude":-146.056},{"id":"AK63","name":"Chenega Bay","alt_name":"Caniqaq","region":"Alaska","country":"US","latitude":60.0746,"longitude":-148.003},{"id":"AK64","name":"Chevak","alt_name":"Cev\u02bcaq","region":"Alaska","country":"US","latitude":61.5278,"longitude":-165.586},{"id":"AK65","name":"Chickaloon","alt_name":"Nay\u2019dini\u2019aa Na\u2019","region":"Alaska","country":"US","latitude":61.7967,"longitude":-148.463},{"id":"AK66","name":"Chicken","alt_name":null,"region":"Alaska","country":"US","latitude":64.0733,"longitude":-141.936},{"id":"AK67","name":"Chignik","alt_name":"Cirniq","region":"Alaska","country":"US","latitude":56.2953,"longitude":-158.402},{"id":"AK68","name":"Chignik Lagoon","alt_name":"Nanwarnaq","region":"Alaska","country":"US","latitude":56.3104,"longitude":-158.5361},{"id":"AK69","name":"Chignik Lake","alt_name":"Igyaraq","region":"Alaska","country":"US","latitude":56.2552,"longitude":-158.7696},{"id":"AK446","name":"Chilkat River Critical Habitat Area","alt_name":null,"region":"Alaska","country":"US","latitude":59.373,"longitude":-135.8596},{"id":"AK70","name":"Chiniak","alt_name":null,"region":"Alaska","country":"US","latitude":57.617,"longitude":-152.2166},{"id":"AK71","name":"Chisana","alt_name":null,"region":"Alaska","country":"US","latitude":62.0671,"longitude":-142.049},{"id":"AK72","name":"Chistochina","alt_name":"Tsiis Tl\u2019edze\u2019 Caegge","region":"Alaska","country":"US","latitude":62.565,"longitude":-144.665},{"id":"AK73","name":"Chitina","alt_name":"Tsedi Na'","region":"Alaska","country":"US","latitude":61.5158,"longitude":-144.437},{"id":"AK74","name":"Christian","alt_name":null,"region":"Alaska","country":"US","latitude":67.3673,"longitude":-145.2},{"id":"AK75","name":"Chuathbaluk","alt_name":"Curarpalek","region":"Alaska","country":"US","latitude":61.5726,"longitude":-159.235},{"id":"AK447","name":"Chugach National Forest Municipal Watershed","alt_name":null,"region":"Alaska","country":"US","latitude":60.5195,"longitude":-145.7223},{"id":"AK76","name":"Chuloonawick","alt_name":null,"region":"Alaska","country":"US","latitude":62.8961,"longitude":-163.894},{"id":"AK77","name":"Circle","alt_name":"Danzhit Kh\u00e0nl\u0105\u012f\u012f","region":"Alaska","country":"US","latitude":65.8255,"longitude":-144.061},{"id":"AK78","name":"Circle Hot Springs","alt_name":null,"region":"Alaska","country":"US","latitude":65.4833,"longitude":-144.634},{"id":"AK79","name":"Clam Gulch","alt_name":null,"region":"Alaska","country":"US","latitude":60.2311,"longitude":-151.394},{"id":"AK80","name":"Clark's Point","alt_name":"Saguyaq","region":"Alaska","country":"US","latitude":58.8441,"longitude":-158.551},{"id":"AK81","name":"Clear","alt_name":null,"region":"Alaska","country":"US","latitude":64.3332,"longitude":-149.167},{"id":"AK82","name":"Clover Pass","alt_name":null,"region":"Alaska","country":"US","latitude":55.472,"longitude":-131.791},{"id":"AK83","name":"Coffman Cove","alt_name":null,"region":"Alaska","country":"US","latitude":56.0119,"longitude":-132.8296},{"id":"AK84","name":"Cohoe","alt_name":null,"region":"Alaska","country":"US","latitude":60.3671,"longitude":-151.3},{"id":"AK85","name":"Cold Bay","alt_name":null,"region":"Alaska","country":"US","latitude":55.1858,"longitude":-162.721},{"id":"AK86","name":"College","alt_name":null,"region":"Alaska","country":"US","latitude":64.8582,"longitude":-147.808},{"id":"AK87","name":"Cooper Landing","alt_name":null,"region":"Alaska","country":"US","latitude":60.4906,"longitude":-149.833},{"id":"AK88","name":"Copper Center","alt_name":"Tl\u2019aticae\u2019e","region":"Alaska","country":"US","latitude":61.955,"longitude":-145.305},{"id":"AK89","name":"Cordova","alt_name":null,"region":"Alaska","country":"US","latitude":60.5428,"longitude":-145.757},{"id":"AK90","name":"Council","alt_name":null,"region":"Alaska","country":"US","latitude":64.895,"longitude":-163.676},{"id":"AK91","name":"Craig","alt_name":"Sh\u00e1an S\u00e9et","region":"Alaska","country":"US","latitude":55.4764,"longitude":-133.148},{"id":"AK92","name":"Crooked Creek","alt_name":"Qipcarpak","region":"Alaska","country":"US","latitude":61.87,"longitude":-158.111},{"id":"AK448","name":"Dall Bay State Marine Park","alt_name":null,"region":"Alaska","country":"US","latitude":55.1559,"longitude":-131.749},{"id":"AK93","name":"Deadhorse","alt_name":null,"region":"Alaska","country":"US","latitude":70.2097,"longitude":-148.418},{"id":"AK449","name":"Decision Point State Marine Park","alt_name":null,"region":"Alaska","country":"US","latitude":60.8016,"longitude":-148.464},{"id":"AK94","name":"Deering","alt_name":"Ipnatchiaq","region":"Alaska","country":"US","latitude":66.0755,"longitude":-162.717},{"id":"AK95","name":"Delta Junction","alt_name":null,"region":"Alaska","country":"US","latitude":64.0377,"longitude":-145.732},{"id":"AK96","name":"Dillingham","alt_name":"Curyung","region":"Alaska","country":"US","latitude":59.0397,"longitude":-158.457},{"id":"AK97","name":"Diomede","alt_name":"I\u014baliq","region":"Alaska","country":"US","latitude":65.7648,"longitude":-168.911},{"id":"AK98","name":"Dot Lake","alt_name":"Kelt\u2019aaddh Menn\u2019","region":"Alaska","country":"US","latitude":63.663,"longitude":-144.049},{"id":"AK99","name":"Douglas","alt_name":null,"region":"Alaska","country":"US","latitude":58.2762,"longitude":-134.392},{"id":"AK100","name":"Dry Creek","alt_name":null,"region":"Alaska","country":"US","latitude":63.7,"longitude":-144.567},{"id":"AK101","name":"Dutch Harbor","alt_name":null,"region":"Alaska","country":"US","latitude":53.891,"longitude":-166.535},{"id":"AK102","name":"Eagle","alt_name":"Tthee T'\u00e4wdlenn","region":"Alaska","country":"US","latitude":64.788,"longitude":-141.2},{"id":"AK103","name":"Eagle River","alt_name":null,"region":"Alaska","country":"US","latitude":61.3221,"longitude":-149.567},{"id":"AK104","name":"Eagle Village","alt_name":null,"region":"Alaska","country":"US","latitude":64.7805,"longitude":-141.114},{"id":"AK441","name":"Eareckson Air Station","alt_name":null,"region":"Alaska","country":"US","latitude":52.7122,"longitude":174.1136},{"id":"AK105","name":"Edna Bay","alt_name":null,"region":"Alaska","country":"US","latitude":55.9489,"longitude":-133.662},{"id":"AK106","name":"Eek","alt_name":"Ekvicuaq","region":"Alaska","country":"US","latitude":60.2189,"longitude":-162.024},{"id":"AK107","name":"Egavik","alt_name":null,"region":"Alaska","country":"US","latitude":64.0332,"longitude":-160.917},{"id":"AK108","name":"Egegik","alt_name":"Igyagiiq","region":"Alaska","country":"US","latitude":58.2155,"longitude":-157.376},{"id":"AK109","name":"Egorkovskoi","alt_name":null,"region":"Alaska","country":"US","latitude":53.564,"longitude":-168.0},{"id":"AK442","name":"Eielson Air Force Base","alt_name":null,"region":"Alaska","country":"US","latitude":64.6656,"longitude":-147.1014},{"id":"AK110","name":"Eklutna","alt_name":"Idlughet","region":"Alaska","country":"US","latitude":61.458,"longitude":-149.362},{"id":"AK111","name":"Ekuk","alt_name":null,"region":"Alaska","country":"US","latitude":58.804,"longitude":-158.541},{"id":"AK112","name":"Ekwok","alt_name":"Iquaq","region":"Alaska","country":"US","latitude":59.3497,"longitude":-157.475},{"id":"AK113","name":"Elephant Point","alt_name":null,"region":"Alaska","country":"US","latitude":66.2673,"longitude":-161.333},{"id":"AK114","name":"Elfin Cove","alt_name":null,"region":"Alaska","country":"US","latitude":58.1944,"longitude":-136.343},{"id":"AK115","name":"Elim","alt_name":"Neviarcaurluq","region":"Alaska","country":"US","latitude":64.6175,"longitude":-162.26},{"id":"AK116","name":"Ellamar","alt_name":null,"region":"Alaska","country":"US","latitude":60.8961,"longitude":-146.708},{"id":"AK117","name":"Emmonak","alt_name":"Imangaq","region":"Alaska","country":"US","latitude":62.7778,"longitude":-164.523},{"id":"AK118","name":"English Bay","alt_name":"Nanwalek","region":"Alaska","country":"US","latitude":59.3581,"longitude":-151.922},{"id":"AK450","name":"Ernie Haugen Public Use Area","alt_name":null,"region":"Alaska","country":"US","latitude":56.5421,"longitude":-132.6616},{"id":"AK119","name":"Eska","alt_name":null,"region":"Alaska","country":"US","latitude":61.7381,"longitude":-148.906},{"id":"AK120","name":"Ester","alt_name":null,"region":"Alaska","country":"US","latitude":64.8472,"longitude":-148.014},{"id":"AK121","name":"Evansville","alt_name":null,"region":"Alaska","country":"US","latitude":66.9227,"longitude":-151.508},{"id":"AK122","name":"Excursion Inlet","alt_name":null,"region":"Alaska","country":"US","latitude":58.417,"longitude":-135.441},{"id":"AK123","name":"Eyak","alt_name":"Igya\u2019aq","region":"Alaska","country":"US","latitude":60.5652,"longitude":-145.7},{"id":"AK124","name":"Fairbanks","alt_name":null,"region":"Alaska","country":"US","latitude":64.8378,"longitude":-147.716},{"id":"AK125","name":"False Pass","alt_name":"Isanax\u0302","region":"Alaska","country":"US","latitude":54.8548,"longitude":-163.407},{"id":"AK126","name":"Ferry","alt_name":null,"region":"Alaska","country":"US","latitude":64.0172,"longitude":-149.117},{"id":"AK127","name":"Fish Village","alt_name":null,"region":"Alaska","country":"US","latitude":62.5212,"longitude":-163.847},{"id":"AK128","name":"Flat","alt_name":null,"region":"Alaska","country":"US","latitude":62.4536,"longitude":-158.007},{"id":"AK129","name":"Fort Glenn","alt_name":null,"region":"Alaska","country":"US","latitude":53.3956,"longitude":-167.881},{"id":"AK440","name":"Fort Greely","alt_name":null,"region":"Alaska","country":"US","latitude":63.9731,"longitude":-145.7181},{"id":"AK438","name":"Fort Wainwright","alt_name":null,"region":"Alaska","country":"US","latitude":64.8278,"longitude":-147.6429},{"id":"AK130","name":"Fort Yukon","alt_name":"Gwichyaa Zheh","region":"Alaska","country":"US","latitude":66.5647,"longitude":-145.274},{"id":"AK131","name":"Fox","alt_name":null,"region":"Alaska","country":"US","latitude":64.958,"longitude":-147.618},{"id":"AK451","name":"Funter Bay State Marine Park","alt_name":null,"region":"Alaska","country":"US","latitude":58.2505,"longitude":-134.9227},{"id":"AK132","name":"Gakona","alt_name":"Ggax Kuna\u2019","region":"Alaska","country":"US","latitude":62.3019,"longitude":-145.302},{"id":"AK133","name":"Galena","alt_name":"Notaalee Denh","region":"Alaska","country":"US","latitude":64.7333,"longitude":-156.927},{"id":"AK134","name":"Gambell","alt_name":"Sivuqaq","region":"Alaska","country":"US","latitude":63.7797,"longitude":-171.741},{"id":"AK135","name":"Georgetown","alt_name":null,"region":"Alaska","country":"US","latitude":61.9085,"longitude":-157.787},{"id":"AK136","name":"Girdwood","alt_name":null,"region":"Alaska","country":"US","latitude":60.9421,"longitude":-149.167},{"id":"AK137","name":"Glennallen","alt_name":null,"region":"Alaska","country":"US","latitude":62.1092,"longitude":-145.546},{"id":"AK452","name":"Goldstream Public Use Area","alt_name":null,"region":"Alaska","country":"US","latitude":64.93,"longitude":-147.7653},{"id":"AK138","name":"Golovin","alt_name":"Cingik \/ Si\u014bik","region":"Alaska","country":"US","latitude":64.5433,"longitude":-163.029},{"id":"AK139","name":"Goodnews Bay","alt_name":"Mamterat","region":"Alaska","country":"US","latitude":59.1186,"longitude":-161.589},{"id":"AK140","name":"Grayling","alt_name":"Sixno' Xidakagg","region":"Alaska","country":"US","latitude":62.9062,"longitude":-160.077},{"id":"AK141","name":"Gulkana","alt_name":"C'uul C'ena'","region":"Alaska","country":"US","latitude":62.2714,"longitude":-145.382},{"id":"AK142","name":"Gustavus","alt_name":null,"region":"Alaska","country":"US","latitude":58.4125,"longitude":-135.738},{"id":"AK143","name":"Haines","alt_name":"Deish\u00fa","region":"Alaska","country":"US","latitude":59.2358,"longitude":-135.445},{"id":"AK144","name":"Hamilton","alt_name":null,"region":"Alaska","country":"US","latitude":62.9497,"longitude":-163.779},{"id":"AK145","name":"Haycock","alt_name":null,"region":"Alaska","country":"US","latitude":65.2172,"longitude":-161.167},{"id":"AK146","name":"Healy","alt_name":null,"region":"Alaska","country":"US","latitude":63.8578,"longitude":-148.966},{"id":"AK147","name":"Healy Lake","alt_name":"Mendees Cheeg","region":"Alaska","country":"US","latitude":63.9441,"longitude":-144.755},{"id":"AK148","name":"Highland Park","alt_name":null,"region":"Alaska","country":"US","latitude":64.7582,"longitude":-147.371},{"id":"AK149","name":"Holikachuk","alt_name":null,"region":"Alaska","country":"US","latitude":62.9112,"longitude":-159.517},{"id":"AK150","name":"Hollis","alt_name":null,"region":"Alaska","country":"US","latitude":55.4879,"longitude":-132.663},{"id":"AK151","name":"Holy Cross","alt_name":"Ingirraller \/ Deloy Chet","region":"Alaska","country":"US","latitude":62.1994,"longitude":-159.771},{"id":"AK152","name":"Homer","alt_name":null,"region":"Alaska","country":"US","latitude":59.6425,"longitude":-151.548},{"id":"AK153","name":"Hoonah","alt_name":"Xunaa \/ Gaaw Yat\u2019a\u1e35 Aan","region":"Alaska","country":"US","latitude":58.11,"longitude":-135.444},{"id":"AK154","name":"Hooper Bay","alt_name":"Naparyaarmiut","region":"Alaska","country":"US","latitude":61.5311,"longitude":-166.097},{"id":"AK155","name":"Hope","alt_name":null,"region":"Alaska","country":"US","latitude":60.9203,"longitude":-149.64},{"id":"AK156","name":"Houston","alt_name":null,"region":"Alaska","country":"US","latitude":61.6302,"longitude":-149.818},{"id":"AK157","name":"Hughes","alt_name":"Hut\u2019odlee Kkaakk\u2019et","region":"Alaska","country":"US","latitude":66.0488,"longitude":-154.255},{"id":"AK158","name":"Huslia","alt_name":"Ts\u2019aateyhdenaadekk\u2019onh Denh","region":"Alaska","country":"US","latitude":65.6986,"longitude":-156.4},{"id":"AK159","name":"Hydaburg","alt_name":"Higd\u00e1a G\u0331\u00e1ndlaay","region":"Alaska","country":"US","latitude":55.208,"longitude":-132.827},{"id":"AK160","name":"Hyder","alt_name":null,"region":"Alaska","country":"US","latitude":55.9169,"longitude":-130.025},{"id":"AK161","name":"Iditarod","alt_name":null,"region":"Alaska","country":"US","latitude":62.5448,"longitude":-158.094},{"id":"AK162","name":"Igiugig","alt_name":"Igyaraq","region":"Alaska","country":"US","latitude":59.3278,"longitude":-155.895},{"id":"AK163","name":"Ikatan","alt_name":null,"region":"Alaska","country":"US","latitude":54.75,"longitude":-163.308},{"id":"AK164","name":"Iliamna","alt_name":"Illiamna","region":"Alaska","country":"US","latitude":59.7536,"longitude":-154.817},{"id":"AK165","name":"Inakpuk","alt_name":null,"region":"Alaska","country":"US","latitude":59.5331,"longitude":-157.15},{"id":"AK166","name":"Indian","alt_name":null,"region":"Alaska","country":"US","latitude":60.9881,"longitude":-149.513},{"id":"AK167","name":"Indian River","alt_name":null,"region":"Alaska","country":"US","latitude":62.6672,"longitude":-144.433},{"id":"AK168","name":"Ingrihak","alt_name":null,"region":"Alaska","country":"US","latitude":61.7561,"longitude":-162.0},{"id":"AK169","name":"Ivanof Bay","alt_name":null,"region":"Alaska","country":"US","latitude":55.8996,"longitude":-159.507},{"id":"AK453","name":"Joe Mace Island State Marine Park","alt_name":null,"region":"Alaska","country":"US","latitude":56.3473,"longitude":-133.635},{"id":"AK170","name":"Joe Ward Camp","alt_name":null,"region":"Alaska","country":"US","latitude":66.8673,"longitude":-143.699},{"id":"AK439","name":"Joint Base Elmendorf-Richardson","alt_name":null,"region":"Alaska","country":"US","latitude":61.2514,"longitude":-149.8064},{"id":"AK171","name":"Jonesville","alt_name":null,"region":"Alaska","country":"US","latitude":61.7311,"longitude":-148.933},{"id":"AK172","name":"Juneau","alt_name":"Dz\u00e1nti K'ih\u00e9eni","region":"Alaska","country":"US","latitude":58.3019,"longitude":-134.42},{"id":"AK173","name":"Kachemak","alt_name":null,"region":"Alaska","country":"US","latitude":59.6488,"longitude":-151.451},{"id":"AK174","name":"Kake","alt_name":"\u1e34\u00e9ex\u0331\u02bc","region":"Alaska","country":"US","latitude":56.9758,"longitude":-133.947},{"id":"AK175","name":"Kakhonak","alt_name":null,"region":"Alaska","country":"US","latitude":59.4421,"longitude":-154.756},{"id":"AK176","name":"Kaktovik","alt_name":"Qaaktu\u0121vik","region":"Alaska","country":"US","latitude":70.1319,"longitude":-143.624},{"id":"AK177","name":"Kalifornsky","alt_name":"Unhghenesditnu","region":"Alaska","country":"US","latitude":60.4412,"longitude":-151.198},{"id":"AK178","name":"Kalskag","alt_name":"Qalqaq","region":"Alaska","country":"US","latitude":61.5391,"longitude":-160.306},{"id":"AK179","name":"Kaltag","alt_name":"Ggaa\u0142 Doh","region":"Alaska","country":"US","latitude":64.3272,"longitude":-158.722},{"id":"AK180","name":"Kanakanak","alt_name":null,"region":"Alaska","country":"US","latitude":59.0031,"longitude":-158.533},{"id":"AK443","name":"Kantishna","alt_name":null,"region":"Alaska","country":"US","latitude":63.5253,"longitude":-150.9581},{"id":"AK454","name":"Kanuti Hot Springs Area Of Critical Environmental Concern","alt_name":null,"region":"Alaska","country":"US","latitude":66.3427,"longitude":-150.8468},{"id":"AK181","name":"Karluk","alt_name":"Kal\u2019ut","region":"Alaska","country":"US","latitude":57.5719,"longitude":-154.455},{"id":"AK182","name":"Kasaan","alt_name":"Gasa'\u00e1an","region":"Alaska","country":"US","latitude":55.5389,"longitude":-132.401},{"id":"AK183","name":"Kashega","alt_name":null,"region":"Alaska","country":"US","latitude":53.467,"longitude":-167.16},{"id":"AK184","name":"Kashegelok","alt_name":null,"region":"Alaska","country":"US","latitude":60.8331,"longitude":-157.833},{"id":"AK185","name":"Kasigluk","alt_name":"Kassigluq","region":"Alaska","country":"US","latitude":60.8955,"longitude":-162.521},{"id":"AK186","name":"Kasilof","alt_name":null,"region":"Alaska","country":"US","latitude":60.3375,"longitude":-151.274},{"id":"AK187","name":"Kathakne","alt_name":null,"region":"Alaska","country":"US","latitude":62.9692,"longitude":-141.832},{"id":"AK188","name":"Kenai","alt_name":"Shk'ituk't","region":"Alaska","country":"US","latitude":60.5544,"longitude":-151.258},{"id":"AK189","name":"Kenny Lake","alt_name":null,"region":"Alaska","country":"US","latitude":61.7379,"longitude":-144.945},{"id":"AK190","name":"Kepangalook","alt_name":null,"region":"Alaska","country":"US","latitude":60.8501,"longitude":-161.617},{"id":"AK191","name":"Ketchikan","alt_name":"Kichx\u0331\u00e1an","region":"Alaska","country":"US","latitude":55.3422,"longitude":-131.646},{"id":"AK192","name":"Kiana","alt_name":"Katyaaq","region":"Alaska","country":"US","latitude":66.975,"longitude":-160.423},{"id":"AK193","name":"Kinegnak","alt_name":null,"region":"Alaska","country":"US","latitude":58.8331,"longitude":-161.667},{"id":"AK194","name":"King Cove","alt_name":"Agdaa\u011dux\u0302","region":"Alaska","country":"US","latitude":55.0629,"longitude":-162.31},{"id":"AK195","name":"King Island","alt_name":"Ugiuvak","region":"Alaska","country":"US","latitude":64.9694,"longitude":-168.065},{"id":"AK196","name":"King Salmon","alt_name":null,"region":"Alaska","country":"US","latitude":58.6883,"longitude":-156.661},{"id":"AK197","name":"Kipnuk","alt_name":"Qipnek","region":"Alaska","country":"US","latitude":59.9389,"longitude":-164.041},{"id":"AK198","name":"Kivalina","alt_name":"Kivali\u00f1iq","region":"Alaska","country":"US","latitude":67.7269,"longitude":-164.533},{"id":"AK199","name":"Kiwalik","alt_name":null,"region":"Alaska","country":"US","latitude":66.0333,"longitude":-161.833},{"id":"AK200","name":"Klawock","alt_name":"Lawaak","region":"Alaska","country":"US","latitude":55.5522,"longitude":-133.096},{"id":"AK201","name":"Klery Creek","alt_name":null,"region":"Alaska","country":"US","latitude":67.1793,"longitude":-160.4},{"id":"AK202","name":"Klukwan","alt_name":"Tl\u00e1kw.aan","region":"Alaska","country":"US","latitude":59.3991,"longitude":-135.894},{"id":"AK203","name":"Knik","alt_name":null,"region":"Alaska","country":"US","latitude":61.4578,"longitude":-149.729},{"id":"AK204","name":"Kobuk","alt_name":"Laugviik","region":"Alaska","country":"US","latitude":66.9072,"longitude":-156.881},{"id":"AK205","name":"Kodiak","alt_name":"Sun'aq","region":"Alaska","country":"US","latitude":57.79,"longitude":-152.407},{"id":"AK206","name":"Kokhanok","alt_name":"Qarr\u2019unaq","region":"Alaska","country":"US","latitude":59.4426,"longitude":-154.761},{"id":"AK207","name":"Kokrines","alt_name":"\u0141oyh Denlekk\u2019es Denh","region":"Alaska","country":"US","latitude":64.9332,"longitude":-154.7},{"id":"AK208","name":"Koliganek","alt_name":"Qalirneq","region":"Alaska","country":"US","latitude":59.7286,"longitude":-157.284},{"id":"AK209","name":"Kongiganak","alt_name":"Kangirnaq","region":"Alaska","country":"US","latitude":59.9647,"longitude":-162.877},{"id":"AK210","name":"Kotlik","alt_name":"Qerrulliik","region":"Alaska","country":"US","latitude":63.0341,"longitude":-163.553},{"id":"AK211","name":"Kotzebue","alt_name":"Qikiqta\u0121ruk","region":"Alaska","country":"US","latitude":66.8983,"longitude":-162.597},{"id":"AK212","name":"Koyuk","alt_name":"Kuuyuk","region":"Alaska","country":"US","latitude":64.9319,"longitude":-161.157},{"id":"AK213","name":"Koyukuk","alt_name":"Meneelghaadze\u2019 T\u2019oh","region":"Alaska","country":"US","latitude":64.8802,"longitude":-157.701},{"id":"AK214","name":"Kupreanof","alt_name":null,"region":"Alaska","country":"US","latitude":56.8153,"longitude":-133.006},{"id":"AK215","name":"Kustatan","alt_name":"Qezdeghnen","region":"Alaska","country":"US","latitude":60.7171,"longitude":-151.75},{"id":"AK216","name":"Kvichak","alt_name":null,"region":"Alaska","country":"US","latitude":58.9671,"longitude":-156.933},{"id":"AK217","name":"Kwethluk","alt_name":"Kuiggluk","region":"Alaska","country":"US","latitude":60.8122,"longitude":-161.436},{"id":"AK218","name":"Kwigillingok","alt_name":"Kuigilnguq","region":"Alaska","country":"US","latitude":59.8644,"longitude":-163.134},{"id":"AK219","name":"Kwiguk","alt_name":null,"region":"Alaska","country":"US","latitude":62.7683,"longitude":-164.5067},{"id":"AK220","name":"Lake Minchumina","alt_name":"Menchuh Mene\u2019","region":"Alaska","country":"US","latitude":63.8828,"longitude":-152.312},{"id":"AK455","name":"Lake Todatonten Pingos Research Natural Area","alt_name":null,"region":"Alaska","country":"US","latitude":66.1055,"longitude":-152.938},{"id":"AK221","name":"Larsen Bay","alt_name":"Uyaqsaq","region":"Alaska","country":"US","latitude":57.54,"longitude":-153.979},{"id":"AK222","name":"Last Tetlin Village","alt_name":null,"region":"Alaska","country":"US","latitude":63.0332,"longitude":-142.616},{"id":"AK223","name":"Latouche","alt_name":null,"region":"Alaska","country":"US","latitude":60.0511,"longitude":-147.9},{"id":"AK224","name":"Lemeta","alt_name":null,"region":"Alaska","country":"US","latitude":64.8582,"longitude":-147.725},{"id":"AK225","name":"Lena Beach","alt_name":null,"region":"Alaska","country":"US","latitude":58.393,"longitude":-134.746},{"id":"AK226","name":"Levelock","alt_name":"Liivlek","region":"Alaska","country":"US","latitude":59.115,"longitude":-156.857},{"id":"AK227","name":"Libbyville","alt_name":null,"region":"Alaska","country":"US","latitude":58.7781,"longitude":-157.056},{"id":"AK228","name":"Lime Village","alt_name":"Hekdichen Hdakaq'","region":"Alaska","country":"US","latitude":61.3564,"longitude":-155.436},{"id":"AK229","name":"Livengood","alt_name":null,"region":"Alaska","country":"US","latitude":65.5244,"longitude":-148.545},{"id":"AK230","name":"Loring","alt_name":null,"region":"Alaska","country":"US","latitude":55.603,"longitude":-131.632},{"id":"AK231","name":"Lower Kalskag","alt_name":"Qalqaq","region":"Alaska","country":"US","latitude":61.5122,"longitude":-160.358},{"id":"AK232","name":"Lower Tonsina","alt_name":"Kentsii Cae'e","region":"Alaska","country":"US","latitude":61.655,"longitude":-144.659},{"id":"AK233","name":"Lucky Shot Landing","alt_name":null,"region":"Alaska","country":"US","latitude":61.7751,"longitude":-149.408},{"id":"AK234","name":"Manley Hot Springs","alt_name":"Too Naale\u0142 Denh","region":"Alaska","country":"US","latitude":65.0011,"longitude":-150.634},{"id":"AK235","name":"Manokotak","alt_name":"Manuquutaq","region":"Alaska","country":"US","latitude":58.9796,"longitude":-159.053},{"id":"AK236","name":"Mansfield Village","alt_name":"Dihth\u00e2ad","region":"Alaska","country":"US","latitude":63.4672,"longitude":-143.433},{"id":"AK237","name":"Marshall","alt_name":"Masserculleq","region":"Alaska","country":"US","latitude":61.8778,"longitude":-162.081},{"id":"AK238","name":"Marys Igloo","alt_name":null,"region":"Alaska","country":"US","latitude":65.1478,"longitude":-165.063},{"id":"AK239","name":"Matanuska","alt_name":null,"region":"Alaska","country":"US","latitude":61.5421,"longitude":-149.229},{"id":"AK240","name":"McCarthy","alt_name":null,"region":"Alaska","country":"US","latitude":61.4333,"longitude":-142.922},{"id":"AK241","name":"McGrath","alt_name":"Tochak\u2019","region":"Alaska","country":"US","latitude":62.9564,"longitude":-155.596},{"id":"AK242","name":"McKinley Park Airport","alt_name":null,"region":"Alaska","country":"US","latitude":63.7331,"longitude":-148.9111},{"id":"AK243","name":"Meakerville","alt_name":null,"region":"Alaska","country":"US","latitude":60.5421,"longitude":-145.008},{"id":"AK244","name":"Medfra","alt_name":null,"region":"Alaska","country":"US","latitude":63.1067,"longitude":-154.714},{"id":"AK245","name":"Mekoryuk","alt_name":"Mikuryar","region":"Alaska","country":"US","latitude":60.388,"longitude":-166.185},{"id":"AK246","name":"Mendeltna","alt_name":null,"region":"Alaska","country":"US","latitude":62.0487,"longitude":-146.5386},{"id":"AK247","name":"Mentasta Lake","alt_name":"Mendaesde","region":"Alaska","country":"US","latitude":62.9212,"longitude":-143.792},{"id":"AK248","name":"Metlakatla","alt_name":"Max\u0142akxaa\u0142a","region":"Alaska","country":"US","latitude":55.1292,"longitude":-131.572},{"id":"AK249","name":"Meyers Chuck","alt_name":null,"region":"Alaska","country":"US","latitude":55.7408,"longitude":-132.256},{"id":"AK250","name":"Minto","alt_name":null,"region":"Alaska","country":"US","latitude":65.1496,"longitude":-149.3504},{"id":"AK251","name":"Moose Pass","alt_name":null,"region":"Alaska","country":"US","latitude":60.4876,"longitude":-149.367},{"id":"AK252","name":"Morzhovoi","alt_name":null,"region":"Alaska","country":"US","latitude":54.91,"longitude":-163.303},{"id":"AK253","name":"Moses Point","alt_name":null,"region":"Alaska","country":"US","latitude":64.7002,"longitude":-162.033},{"id":"AK254","name":"Mountain Village","alt_name":"Asaacaryaraq","region":"Alaska","country":"US","latitude":62.0884,"longitude":-163.72},{"id":"AK255","name":"Myers Chuck","alt_name":null,"region":"Alaska","country":"US","latitude":55.742,"longitude":-132.253},{"id":"AK256","name":"Nabesna","alt_name":"Naambia Niign Daacheeg","region":"Alaska","country":"US","latitude":62.3719,"longitude":-143.009},{"id":"AK257","name":"Nakeen","alt_name":null,"region":"Alaska","country":"US","latitude":58.9361,"longitude":-157.038},{"id":"AK258","name":"Naknek","alt_name":"Nakniq","region":"Alaska","country":"US","latitude":58.7283,"longitude":-157.014},{"id":"AK259","name":"Nanwalek","alt_name":null,"region":"Alaska","country":"US","latitude":59.354,"longitude":-151.916},{"id":"AK260","name":"Napaimiut","alt_name":null,"region":"Alaska","country":"US","latitude":61.5421,"longitude":-158.692},{"id":"AK261","name":"Napakiak","alt_name":"Naparyarraq","region":"Alaska","country":"US","latitude":60.6967,"longitude":-161.952},{"id":"AK262","name":"Napamiute","alt_name":null,"region":"Alaska","country":"US","latitude":61.54,"longitude":-158.674},{"id":"AK263","name":"Napaskiak","alt_name":"Napaskiaq","region":"Alaska","country":"US","latitude":60.708,"longitude":-161.766},{"id":"AK264","name":"Nash Harbor","alt_name":null,"region":"Alaska","country":"US","latitude":60.2041,"longitude":-166.939},{"id":"AK265","name":"Nelchina","alt_name":null,"region":"Alaska","country":"US","latitude":61.996,"longitude":-146.8203},{"id":"AK266","name":"Nelson Lagoon","alt_name":"Niilsanam Al\u011duudaa","region":"Alaska","country":"US","latitude":56.0012,"longitude":-161.201},{"id":"AK267","name":"Nenana","alt_name":"Toghotili","region":"Alaska","country":"US","latitude":64.5638,"longitude":-149.093},{"id":"AK268","name":"New Knockhock","alt_name":null,"region":"Alaska","country":"US","latitude":62.1291,"longitude":-164.894},{"id":"AK269","name":"New Stuyahok","alt_name":"Cetuyaraq","region":"Alaska","country":"US","latitude":59.4528,"longitude":-157.312},{"id":"AK270","name":"Newhalen","alt_name":"Nuuriileng","region":"Alaska","country":"US","latitude":59.72,"longitude":-154.897},{"id":"AK271","name":"Newtok","alt_name":"Niugtaq","region":"Alaska","country":"US","latitude":60.9427,"longitude":-164.629},{"id":"AK272","name":"Nightmute","alt_name":"Negtemiut","region":"Alaska","country":"US","latitude":60.4794,"longitude":-164.724},{"id":"AK273","name":"Nikiski","alt_name":null,"region":"Alaska","country":"US","latitude":60.6394,"longitude":-151.334},{"id":"AK274","name":"Nikolaevsk","alt_name":null,"region":"Alaska","country":"US","latitude":59.8109,"longitude":-151.623},{"id":"AK275","name":"Nikolai","alt_name":"Nikolai","region":"Alaska","country":"US","latitude":63.0133,"longitude":-154.375},{"id":"AK276","name":"Nikolski","alt_name":"Chalukax\u0302","region":"Alaska","country":"US","latitude":52.938,"longitude":-168.868},{"id":"AK277","name":"Nilikluguk","alt_name":null,"region":"Alaska","country":"US","latitude":60.6501,"longitude":-165.15},{"id":"AK278","name":"Ninilchik","alt_name":null,"region":"Alaska","country":"US","latitude":60.0514,"longitude":-151.669},{"id":"AK279","name":"Noatak","alt_name":"Nuataam Kuu\u014ba","region":"Alaska","country":"US","latitude":67.5711,"longitude":-162.965},{"id":"AK280","name":"Nome","alt_name":"Sit\u014basuaq","region":"Alaska","country":"US","latitude":64.5011,"longitude":-165.406},{"id":"AK281","name":"Nondalton","alt_name":"Nundaltin","region":"Alaska","country":"US","latitude":59.9736,"longitude":-154.846},{"id":"AK282","name":"Noorvik","alt_name":"Nuurvik","region":"Alaska","country":"US","latitude":66.8383,"longitude":-161.033},{"id":"AK283","name":"North Pole","alt_name":null,"region":"Alaska","country":"US","latitude":64.7511,"longitude":-147.349},{"id":"AK284","name":"Northway","alt_name":"K\u2019ehtthiign","region":"Alaska","country":"US","latitude":62.9616,"longitude":-141.937},{"id":"AK285","name":"Northway Indian Village","alt_name":null,"region":"Alaska","country":"US","latitude":62.9832,"longitude":-141.949},{"id":"AK286","name":"Northway Junction","alt_name":null,"region":"Alaska","country":"US","latitude":63.0173,"longitude":-141.792},{"id":"AK287","name":"Nuiqsut","alt_name":"Nuiqsat","region":"Alaska","country":"US","latitude":70.2175,"longitude":-150.976},{"id":"AK288","name":"Nulato","alt_name":"Noolaaghe Doh","region":"Alaska","country":"US","latitude":64.7194,"longitude":-158.103},{"id":"AK289","name":"Nunam Iqua","alt_name":"Sheldon Point","region":"Alaska","country":"US","latitude":62.5336,"longitude":-164.841},{"id":"AK290","name":"Nunapitchuk","alt_name":"Nunapicuar","region":"Alaska","country":"US","latitude":60.8969,"longitude":-162.459},{"id":"AK291","name":"Nyac","alt_name":null,"region":"Alaska","country":"US","latitude":61.0061,"longitude":-159.946},{"id":"AK292","name":"Ohogamiut","alt_name":"Urr'agmiut","region":"Alaska","country":"US","latitude":61.5677,"longitude":-161.864},{"id":"AK293","name":"Old Harbor","alt_name":"Nuniaq","region":"Alaska","country":"US","latitude":57.2028,"longitude":-153.304},{"id":"AK294","name":"Old Minto","alt_name":"Menhti Xwghotthit","region":"Alaska","country":"US","latitude":64.8882,"longitude":-149.182},{"id":"AK456","name":"Oliver Inlet State Marine Park","alt_name":null,"region":"Alaska","country":"US","latitude":58.1015,"longitude":-134.3127},{"id":"AK295","name":"Ophir","alt_name":null,"region":"Alaska","country":"US","latitude":63.1447,"longitude":-156.519},{"id":"AK296","name":"Oscarville","alt_name":"Kuiggayagaq","region":"Alaska","country":"US","latitude":60.7273,"longitude":-161.79},{"id":"AK297","name":"Osviak","alt_name":null,"region":"Alaska","country":"US","latitude":58.8171,"longitude":-161.3},{"id":"AK298","name":"Ouzinkie","alt_name":"Uusenkaa","region":"Alaska","country":"US","latitude":57.9236,"longitude":-152.496},{"id":"AK299","name":"Paimiut","alt_name":"Paimute","region":"Alaska","country":"US","latitude":61.6971,"longitude":-165.83},{"id":"AK300","name":"Palmer","alt_name":null,"region":"Alaska","country":"US","latitude":61.5997,"longitude":-149.113},{"id":"AK301","name":"Pastolik","alt_name":null,"region":"Alaska","country":"US","latitude":62.9972,"longitude":-163.304},{"id":"AK302","name":"Pauloff Harbor","alt_name":null,"region":"Alaska","country":"US","latitude":54.4589,"longitude":-162.7},{"id":"AK303","name":"Paxson","alt_name":null,"region":"Alaska","country":"US","latitude":63.033,"longitude":-145.4979},{"id":"AK304","name":"Pedro Bay","alt_name":null,"region":"Alaska","country":"US","latitude":59.7914,"longitude":-154.098},{"id":"AK305","name":"Pelican","alt_name":"K'udeis'x\u0331'e","region":"Alaska","country":"US","latitude":57.9608,"longitude":-136.227},{"id":"AK306","name":"Pennock Island","alt_name":null,"region":"Alaska","country":"US","latitude":55.328,"longitude":-131.628},{"id":"AK307","name":"Perryville","alt_name":"Perry-q","region":"Alaska","country":"US","latitude":55.9119,"longitude":-159.166},{"id":"AK308","name":"Petersburg","alt_name":"S\u00e9et K\u00e1","region":"Alaska","country":"US","latitude":56.8125,"longitude":-132.955},{"id":"AK309","name":"Petersville","alt_name":null,"region":"Alaska","country":"US","latitude":62.373,"longitude":-150.7332},{"id":"AK310","name":"Pile Bay Village","alt_name":null,"region":"Alaska","country":"US","latitude":59.7789,"longitude":-153.8819},{"id":"AK311","name":"Pilot Point","alt_name":"Agisaq","region":"Alaska","country":"US","latitude":57.5641,"longitude":-157.579},{"id":"AK312","name":"Pilot Station","alt_name":"Tuutalgaq","region":"Alaska","country":"US","latitude":61.9389,"longitude":-162.875},{"id":"AK313","name":"Pitkas Point","alt_name":"Negeqliim Painga","region":"Alaska","country":"US","latitude":62.0328,"longitude":-163.288},{"id":"AK314","name":"Platinum","alt_name":"Arviiq","region":"Alaska","country":"US","latitude":59.013,"longitude":-161.816},{"id":"AK315","name":"Point Baker","alt_name":null,"region":"Alaska","country":"US","latitude":56.3528,"longitude":-133.621},{"id":"AK316","name":"Point Hope","alt_name":"Tiki\u0121aq","region":"Alaska","country":"US","latitude":68.3477,"longitude":-166.808},{"id":"AK317","name":"Point Lay","alt_name":"Kali","region":"Alaska","country":"US","latitude":69.7574,"longitude":-163.051},{"id":"AK318","name":"Poorman","alt_name":null,"region":"Alaska","country":"US","latitude":64.0991,"longitude":-155.544},{"id":"AK319","name":"Port Alexander","alt_name":null,"region":"Alaska","country":"US","latitude":56.2497,"longitude":-134.644},{"id":"AK320","name":"Port Alsworth","alt_name":null,"region":"Alaska","country":"US","latitude":60.2025,"longitude":-154.313},{"id":"AK321","name":"Port Ashton","alt_name":null,"region":"Alaska","country":"US","latitude":60.0581,"longitude":-148.05},{"id":"AK322","name":"Port Graham","alt_name":"Paluwik","region":"Alaska","country":"US","latitude":59.3514,"longitude":-151.83},{"id":"AK323","name":"Port Heiden","alt_name":"Masrriq","region":"Alaska","country":"US","latitude":56.9566,"longitude":-158.645},{"id":"AK324","name":"Port Lions","alt_name":"Masiqsirraq","region":"Alaska","country":"US","latitude":57.8675,"longitude":-152.882},{"id":"AK325","name":"Port Mackenzie","alt_name":null,"region":"Alaska","country":"US","latitude":61.2686,"longitude":-149.9202},{"id":"AK326","name":"Port Moller","alt_name":null,"region":"Alaska","country":"US","latitude":55.99,"longitude":-160.577},{"id":"AK327","name":"Port Protection","alt_name":null,"region":"Alaska","country":"US","latitude":56.3127,"longitude":-133.602},{"id":"AK328","name":"Portage","alt_name":null,"region":"Alaska","country":"US","latitude":60.8381,"longitude":-148.979},{"id":"AK329","name":"Portage Creek","alt_name":null,"region":"Alaska","country":"US","latitude":58.9006,"longitude":-157.714},{"id":"AK330","name":"Portlock","alt_name":null,"region":"Alaska","country":"US","latitude":59.2144,"longitude":-151.7461},{"id":"AK331","name":"Prudhoe Bay","alt_name":null,"region":"Alaska","country":"US","latitude":70.2366,"longitude":-148.38},{"id":"AK332","name":"Quinhagak","alt_name":"Kuinerraq","region":"Alaska","country":"US","latitude":59.7489,"longitude":-161.916},{"id":"AK333","name":"Rainbow","alt_name":null,"region":"Alaska","country":"US","latitude":61.0041,"longitude":-149.642},{"id":"AK334","name":"Rampart","alt_name":"Dle\u0142 Taaneets","region":"Alaska","country":"US","latitude":65.5049,"longitude":-150.17},{"id":"AK335","name":"Red Devil","alt_name":null,"region":"Alaska","country":"US","latitude":61.7611,"longitude":-157.313},{"id":"AK336","name":"Refuge Cove","alt_name":null,"region":"Alaska","country":"US","latitude":55.407,"longitude":-131.741},{"id":"AK337","name":"Ruby","alt_name":"Tl'aa'ologhe","region":"Alaska","country":"US","latitude":64.7394,"longitude":-155.487},{"id":"AK338","name":"Russian Mission","alt_name":"Iqugmiut","region":"Alaska","country":"US","latitude":61.7856,"longitude":-161.325},{"id":"AK457","name":"Safety Cove State Marine Park","alt_name":null,"region":"Alaska","country":"US","latitude":59.9819,"longitude":-149.2235},{"id":"AK339","name":"Saint George","alt_name":"An\u011daaxchalux\u0302","region":"Alaska","country":"US","latitude":56.603,"longitude":-169.545},{"id":"AK340","name":"Saint Mary's","alt_name":"Negeqliq","region":"Alaska","country":"US","latitude":62.053,"longitude":-163.166},{"id":"AK341","name":"Saint Michael","alt_name":"Taciq","region":"Alaska","country":"US","latitude":63.478,"longitude":-162.039},{"id":"AK342","name":"Saint Paul","alt_name":"Tanax\u0302 Amix\u0302","region":"Alaska","country":"US","latitude":57.1221,"longitude":-170.276},{"id":"AK343","name":"Salamatof","alt_name":null,"region":"Alaska","country":"US","latitude":60.5878,"longitude":-151.326},{"id":"AK344","name":"Salcha","alt_name":"So\u0142 Chaget","region":"Alaska","country":"US","latitude":64.5288,"longitude":-146.899},{"id":"AK345","name":"Salt Chuck","alt_name":null,"region":"Alaska","country":"US","latitude":55.628,"longitude":-132.552},{"id":"AK346","name":"Sanak","alt_name":null,"region":"Alaska","country":"US","latitude":54.4831,"longitude":-162.814},{"id":"AK347","name":"Sand Point","alt_name":null,"region":"Alaska","country":"US","latitude":55.3397,"longitude":-160.497},{"id":"AK458","name":"Sandspit Point State Marine Park","alt_name":null,"region":"Alaska","country":"US","latitude":59.9378,"longitude":-149.318},{"id":"AK348","name":"Savonoski","alt_name":null,"region":"Alaska","country":"US","latitude":58.7171,"longitude":-156.867},{"id":"AK349","name":"Savoonga","alt_name":"Sivunga","region":"Alaska","country":"US","latitude":63.6904,"longitude":-170.481},{"id":"AK350","name":"Saxman","alt_name":null,"region":"Alaska","country":"US","latitude":55.3183,"longitude":-131.596},{"id":"AK351","name":"Scammon Bay","alt_name":"Marayaarmiut","region":"Alaska","country":"US","latitude":61.8428,"longitude":-165.582},{"id":"AK352","name":"Selawik","alt_name":"Sii\u1e37ivik \/ Akuli\u0121aq","region":"Alaska","country":"US","latitude":66.6039,"longitude":-160.007},{"id":"AK353","name":"Seldovia","alt_name":"Angagkitaqnuuq","region":"Alaska","country":"US","latitude":59.438,"longitude":-151.711},{"id":"AK354","name":"Seward","alt_name":"Qutalleq","region":"Alaska","country":"US","latitude":60.1043,"longitude":-149.442},{"id":"AK355","name":"Shageluk","alt_name":"Edixi","region":"Alaska","country":"US","latitude":62.6822,"longitude":-159.562},{"id":"AK356","name":"Shaktoolik","alt_name":"Saktuliq","region":"Alaska","country":"US","latitude":64.35,"longitude":-161.183},{"id":"AK357","name":"Shemya Station","alt_name":null,"region":"Alaska","country":"US","latitude":52.7246,"longitude":174.112},{"id":"AK358","name":"Shishmaref","alt_name":"Qigiqtaq","region":"Alaska","country":"US","latitude":66.2567,"longitude":-166.072},{"id":"AK359","name":"Shungnak","alt_name":"Isi\u014bnaq \/ Nuurviuraq","region":"Alaska","country":"US","latitude":66.888,"longitude":-157.136},{"id":"AK360","name":"Sitka","alt_name":"Sheet'k\u00e1","region":"Alaska","country":"US","latitude":57.053,"longitude":-135.33},{"id":"AK361","name":"Skagway","alt_name":null,"region":"Alaska","country":"US","latitude":59.4583,"longitude":-135.314},{"id":"AK362","name":"Skwentna","alt_name":null,"region":"Alaska","country":"US","latitude":61.9649,"longitude":-151.158},{"id":"AK363","name":"Slana","alt_name":"Stl\u2019aa Caegge","region":"Alaska","country":"US","latitude":62.707,"longitude":-143.9697},{"id":"AK364","name":"Slaterville","alt_name":null,"region":"Alaska","country":"US","latitude":64.8532,"longitude":-147.717},{"id":"AK365","name":"Sleetmute","alt_name":"Cellitemiut","region":"Alaska","country":"US","latitude":61.7025,"longitude":-157.17},{"id":"AK366","name":"Soldotna","alt_name":null,"region":"Alaska","country":"US","latitude":60.4878,"longitude":-151.058},{"id":"AK367","name":"Solomon","alt_name":null,"region":"Alaska","country":"US","latitude":64.5608,"longitude":-164.439},{"id":"AK368","name":"South Naknek","alt_name":"Qinuyang","region":"Alaska","country":"US","latitude":58.7155,"longitude":-156.998},{"id":"AK459","name":"South Todatonten Summit Research Natural Area","alt_name":null,"region":"Alaska","country":"US","latitude":66.0506,"longitude":-152.881},{"id":"AK369","name":"Spenard","alt_name":null,"region":"Alaska","country":"US","latitude":61.1881,"longitude":-149.917},{"id":"AK370","name":"Squaw Harbor","alt_name":null,"region":"Alaska","country":"US","latitude":55.2433,"longitude":-160.553},{"id":"AK371","name":"St. Mary's","alt_name":null,"region":"Alaska","country":"US","latitude":62.0331,"longitude":-163.25},{"id":"AK460","name":"Stan Price State Wildlife Sanctuary","alt_name":null,"region":"Alaska","country":"US","latitude":57.9051,"longitude":-134.275},{"id":"AK372","name":"Stebbins","alt_name":"Tapraq","region":"Alaska","country":"US","latitude":63.5222,"longitude":-162.288},{"id":"AK373","name":"Sterling","alt_name":null,"region":"Alaska","country":"US","latitude":60.5381,"longitude":-150.758},{"id":"AK374","name":"Stevens Village","alt_name":"Denyeet","region":"Alaska","country":"US","latitude":66.0063,"longitude":-149.091},{"id":"AK375","name":"Stony River","alt_name":"Gidighuyghatno\u2019 Xidochagg Qay \/ K'qizaghetnu","region":"Alaska","country":"US","latitude":61.7831,"longitude":-156.588},{"id":"AK376","name":"Summit","alt_name":null,"region":"Alaska","country":"US","latitude":63.3292,"longitude":-149.119},{"id":"AK461","name":"Sunny Cove State Marine Park","alt_name":null,"region":"Alaska","country":"US","latitude":59.9024,"longitude":-149.3453},{"id":"AK377","name":"Sunrise","alt_name":null,"region":"Alaska","country":"US","latitude":60.8921,"longitude":-149.425},{"id":"AK378","name":"Suntrana","alt_name":null,"region":"Alaska","country":"US","latitude":63.8582,"longitude":-148.846},{"id":"AK379","name":"Susitna Station","alt_name":null,"region":"Alaska","country":"US","latitude":61.5432,"longitude":-150.5162},{"id":"AK380","name":"Sutton","alt_name":null,"region":"Alaska","country":"US","latitude":61.7114,"longitude":-148.894},{"id":"AK381","name":"Takotna","alt_name":"Tochotno\u2019","region":"Alaska","country":"US","latitude":62.9886,"longitude":-156.064},{"id":"AK462","name":"Taku Harbor State Marine Park","alt_name":null,"region":"Alaska","country":"US","latitude":58.0622,"longitude":-134.0187},{"id":"AK382","name":"Talkeetna","alt_name":"K'dalkitnu","region":"Alaska","country":"US","latitude":62.3239,"longitude":-150.109},{"id":"AK383","name":"Tanacross","alt_name":"Taats\u2019alt\u0119y","region":"Alaska","country":"US","latitude":63.378,"longitude":-143.356},{"id":"AK384","name":"Tanana","alt_name":"Hohudodetlaatl Denh","region":"Alaska","country":"US","latitude":65.1719,"longitude":-152.079},{"id":"AK386","name":"Tatitlek","alt_name":"Taatiilaaq","region":"Alaska","country":"US","latitude":60.8647,"longitude":-146.679},{"id":"AK387","name":"Tazlina","alt_name":"Tezdlen Na\u2019","region":"Alaska","country":"US","latitude":62.0305,"longitude":-145.416},{"id":"AK388","name":"Tee Harbor","alt_name":null,"region":"Alaska","country":"US","latitude":58.41,"longitude":-134.757},{"id":"AK389","name":"Telida","alt_name":"Tilayadi","region":"Alaska","country":"US","latitude":63.3833,"longitude":-153.267},{"id":"AK390","name":"Teller","alt_name":"Tala","region":"Alaska","country":"US","latitude":65.2636,"longitude":-166.361},{"id":"AK391","name":"Teller Mission","alt_name":null,"region":"Alaska","country":"US","latitude":65.3332,"longitude":-166.484},{"id":"AK392","name":"Tenakee Springs","alt_name":"T\u02bcanag\u0331eey \/ Tlaagoowu Aan","region":"Alaska","country":"US","latitude":57.7808,"longitude":-135.219},{"id":"AK393","name":"Tetlin","alt_name":"Tee\u0142\u0105y","region":"Alaska","country":"US","latitude":63.1373,"longitude":-142.5208},{"id":"AK394","name":"Tetlin Junction","alt_name":null,"region":"Alaska","country":"US","latitude":63.3172,"longitude":-142.599},{"id":"AK395","name":"Thane","alt_name":null,"region":"Alaska","country":"US","latitude":58.264,"longitude":-134.328},{"id":"AK396","name":"Thorne Bay","alt_name":null,"region":"Alaska","country":"US","latitude":55.7274,"longitude":-132.471},{"id":"AK463","name":"Thumb Cove State Marine Park","alt_name":null,"region":"Alaska","country":"US","latitude":60.004,"longitude":-149.3008},{"id":"AK397","name":"Tin City","alt_name":null,"region":"Alaska","country":"US","latitude":65.5502,"longitude":-167.851},{"id":"AK398","name":"Togiak","alt_name":"Tuyuryaq","region":"Alaska","country":"US","latitude":59.0619,"longitude":-160.376},{"id":"AK399","name":"Tok","alt_name":null,"region":"Alaska","country":"US","latitude":63.3366,"longitude":-142.985},{"id":"AK400","name":"Tokeen","alt_name":null,"region":"Alaska","country":"US","latitude":55.938,"longitude":-133.324},{"id":"AK401","name":"Toksook Bay","alt_name":"Nunakauyaq","region":"Alaska","country":"US","latitude":60.5303,"longitude":-165.102},{"id":"AK402","name":"Tolovana","alt_name":null,"region":"Alaska","country":"US","latitude":64.8542,"longitude":-149.824},{"id":"AK403","name":"Tonsina","alt_name":null,"region":"Alaska","country":"US","latitude":61.6558,"longitude":-145.175},{"id":"AK404","name":"Tuluksak","alt_name":"Tuulkessaaq","region":"Alaska","country":"US","latitude":61.1025,"longitude":-160.962},{"id":"AK405","name":"Tuntutuliak","alt_name":"Tuntutuliaq","region":"Alaska","country":"US","latitude":60.3397,"longitude":-162.669},{"id":"AK406","name":"Tununak","alt_name":"Tununeq","region":"Alaska","country":"US","latitude":60.5855,"longitude":-165.256},{"id":"AK407","name":"Twin Hills","alt_name":"Ingricuar","region":"Alaska","country":"US","latitude":59.0792,"longitude":-160.275},{"id":"AK436","name":"Two Rivers","alt_name":null,"region":"Alaska","country":"US","latitude":64.8767,"longitude":-147.0384},{"id":"AK408","name":"Tyonek","alt_name":"Qaggeyshlat","region":"Alaska","country":"US","latitude":61.0681,"longitude":-151.137},{"id":"AK409","name":"Ugashik","alt_name":"Ugaasaq","region":"Alaska","country":"US","latitude":57.513,"longitude":-157.397},{"id":"AK410","name":"Ukivok","alt_name":null,"region":"Alaska","country":"US","latitude":64.9672,"longitude":-168.068},{"id":"AK411","name":"Umiat","alt_name":null,"region":"Alaska","country":"US","latitude":69.3674,"longitude":-152.133},{"id":"AK412","name":"Umkumiute","alt_name":null,"region":"Alaska","country":"US","latitude":60.4983,"longitude":-165.199},{"id":"AK413","name":"Umnak","alt_name":null,"region":"Alaska","country":"US","latitude":53.267,"longitude":-168.217},{"id":"AK414","name":"Unalakleet","alt_name":"U\u014balaq\u0142iit","region":"Alaska","country":"US","latitude":63.873,"longitude":-160.788},{"id":"AK415","name":"Unalaska","alt_name":"Iluulux\u0302","region":"Alaska","country":"US","latitude":53.8733,"longitude":-166.533},{"id":"AK416","name":"Unga","alt_name":"U\u011dnaasaqax\u0302","region":"Alaska","country":"US","latitude":55.1828,"longitude":-160.506},{"id":"AK417","name":"Upper Kalskag","alt_name":null,"region":"Alaska","country":"US","latitude":61.5372,"longitude":-160.305},{"id":"AK418","name":"Utqia\u0121vik","alt_name":"Barrow","region":"Alaska","country":"US","latitude":71.2905,"longitude":-156.789},{"id":"AK419","name":"Utukakarvik","alt_name":null,"region":"Alaska","country":"US","latitude":61.9611,"longitude":-164.75},{"id":"AK420","name":"Uyak","alt_name":null,"region":"Alaska","country":"US","latitude":57.6256,"longitude":-153.988},{"id":"AK421","name":"Valdez","alt_name":"Suacit","region":"Alaska","country":"US","latitude":61.1308,"longitude":-146.348},{"id":"AK422","name":"Venetie","alt_name":"V\u012f\u012fht\u0105\u012f\u012f","region":"Alaska","country":"US","latitude":67.0139,"longitude":-146.419},{"id":"AK423","name":"Wainwright","alt_name":"Ul\u0121uniq","region":"Alaska","country":"US","latitude":70.6369,"longitude":-160.038},{"id":"AK424","name":"Wales","alt_name":"Ki\u014bigin","region":"Alaska","country":"US","latitude":65.6097,"longitude":-168.0876},{"id":"AK425","name":"Ward Cove","alt_name":null,"region":"Alaska","country":"US","latitude":55.408,"longitude":-131.724},{"id":"AK426","name":"Wasilla","alt_name":null,"region":"Alaska","country":"US","latitude":61.5814,"longitude":-149.439},{"id":"AK427","name":"Whale Pass","alt_name":null,"region":"Alaska","country":"US","latitude":56.1,"longitude":-133.167},{"id":"AK428","name":"White Mountain","alt_name":"Nasirvik","region":"Alaska","country":"US","latitude":64.6813,"longitude":-163.406},{"id":"AK429","name":"Whittier","alt_name":null,"region":"Alaska","country":"US","latitude":60.773,"longitude":-148.684},{"id":"AK430","name":"Willow","alt_name":null,"region":"Alaska","country":"US","latitude":61.7472,"longitude":-150.037},{"id":"AK431","name":"Wiseman","alt_name":null,"region":"Alaska","country":"US","latitude":67.41,"longitude":-150.107},{"id":"AK432","name":"Womens Bay","alt_name":null,"region":"Alaska","country":"US","latitude":57.7099,"longitude":-152.586},{"id":"AK433","name":"Woody Island","alt_name":null,"region":"Alaska","country":"US","latitude":57.78,"longitude":-152.355},{"id":"AK434","name":"Wrangell","alt_name":"Shtax\u2019h\u00e9en","region":"Alaska","country":"US","latitude":56.4708,"longitude":-132.377},{"id":"AK435","name":"Yakutat","alt_name":"Yaakwd\u00e1at","region":"Alaska","country":"US","latitude":59.5469,"longitude":-139.727},{"id":"AK464","name":"Ziegler Cove State Marine Park","alt_name":null,"region":"Alaska","country":"US","latitude":60.8381,"longitude":-148.3205}]